[
    {
      "id" : 1,
      "name" : "Vesta Coffee Roasters",
      "address" : "1114 S Casino Center Blvd #1, Las Vegas, NV 89104, USA",
      "longitude" : -115.141692,
      "latitude" : 36.162979
    },
    {
      "id" : 2,
      "name" : "Bungalow Coffee Co",
      "address" : "201 E Charleston Blvd Suite 180, Las Vegas, NV 89104, USA",
      "longitude" : -115.149776,
      "latitude" : 36.165032
    },
    {
      "id" : 3,
      "name" : "Desert Wind Coffee Roasters",
      "address" : "7772 W Sahara Ave, Las Vegas, NV 89117, USA",
      "longitude" : -115.221415,
      "latitude" : 36.127346
    },
    {
      "id" : 4,
      "name" : "PublicUs",
      "address" : "1126 E Fremont St, Las Vegas, NV 89101, USA",
      "longitude" : -115.139016,
      "latitude" : 36.168233
    },
    {
      "id" : 5,
      "name" : "Dig It! Coffee Co.",
      "address" : "1300 S Casino Center Blvd Unit 110, Las Vegas, NV 89104, USA",
      "longitude" : -115.141692,
      "latitude" : 36.162979
    },
    {
      "id" : 6,
      "name" : "Makers & Finders Coffee",
      "address" : "1120 S Main St, Las Vegas, NV 89104, USA",
      "longitude" : -115.146722,
      "latitude" : 36.161616
    },
    {
      "id" : 7,
      "name" : "Sunrise Coffee",
      "address" : "3130 E Sunset Rd, Las Vegas, NV 89120, USA",
      "longitude" : -115.082829,
      "latitude" : 36.096831
    },
    {
      "id" : 8,
      "name" : "Bad Owl Coffee Roasters",
      "address" : "9484 W Flamingo Rd #170, Las Vegas, NV 89147, USA",
      "longitude" : -115.242389,
      "latitude" : 36.102853
    },
    {
      "id" : 9,
      "name" : "GÃ¤bi Coffee & Bakery",
      "address" : "5808 Spring Mountain Rd Suite 101, Las Vegas, NV 89146, USA",
      "longitude" : -115.189717,
      "latitude" : 36.11486
    },
    {
      "id" : 10,
      "name" : "Mothership Coffee Roasters",
      "address" : "633 N 7th St, Las Vegas, NV 89101, USA",
      "longitude" : -115.143202,
      "latitude" : 36.172223
    },
    {
      "id" : 11,
      "name" : "Sambalatte Torrefazione",
      "address" : "750 S Rampart Blvd #9, Las Vegas, NV 89145, USA",
      "longitude" : -115.192303,
      "latitude" : 36.126132
    },
    {
      "id" : 12,
      "name" : "Grouchy John's Coffee",
      "address" : "8520 W Warm Springs Rd Suite 100, Las Vegas, NV 89113, USA",
      "longitude" : -115.227054,
      "latitude" : 36.07177
    },
    {
      "id" : 13,
      "name" : "Dark Moon Coffee Roasters",
      "address" : "4170 S Grand Canyon Dr Suite 100, Las Vegas, NV 89147, USA",
      "longitude" : -115.175118,
      "latitude" : 36.089925
    },
    {
      "id" : 14,
      "name" : "Coffee Bean & Tea Leaf",
      "address" : "4700 S Maryland Pkwy, Las Vegas, NV 89119, USA",
      "longitude" : -115.131496,
      "latitude" : 36.105239
    },
    {
      "id" : 15,
      "name" : "Jolt Coffee Co",
      "address" : "102 E Fremont St, Las Vegas, NV 89101, USA",
      "longitude" : -115.144444,
      "latitude" : 36.170884
    },
    {
      "id" : 16,
      "name" : "The Cuppa",
      "address" : "1029 S 1st St Suite 100, Las Vegas, NV 89101, USA",
      "longitude" : -115.147394,
      "latitude" : 36.163304
    },
    {
      "id" : 17,
      "name" : "Yu Or Mi",
      "address" : "6125 Spring Mountain Rd, Las Vegas, NV 89146, USA",
      "longitude" : -115.190893,
      "latitude" : 36.114906
    },
    {
      "id" : 18,
      "name" : "AmeriEspresso",
      "address" : "7385 W Sahara Ave, Las Vegas, NV 89117, USA",
      "longitude" : -115.2226,
      "latitude" : 36.127278
    },
    {
      "id" : 19,
      "name" : "The Coffee Press",
      "address" : "5012 S Fort Apache Rd #150, Las Vegas, NV 89148, USA",
      "longitude" : -115.251879,
      "latitude" : 36.08112
    },
    {
      "id" : 20,
      "name" : "Cafe Lola",
      "address" : "5255 S Decatur Blvd Suite 115, Las Vegas, NV 89118, USA",
      "longitude" : -115.176858,
      "latitude" : 36.103112
    }
  ]
